{"metadata": {"act": "acto_1", "title": "El territorio", "generated_at": "2026-06-28T18:51:47.160925+00:00", "source_files": {"master_table": "data/master/master_table.parquet", "tabla_clustering_final": "data/master/tabla_clustering_final.parquet"}, "geo_join_key": "cod_municipio", "ui_text": {"anchor_phrase": "El riesgo más severo no está en Cali. Está en Pasto, en Popayán, en municipios intermedios del Valle y Cauca. El tamaño urbano no predice la violencia de género.", "chocho_disclaimer": "Los valores bajos de Chocó conviven con subregistro estructural documentado. Dos municipios fueron excluidos del modelo (códigos 27150 y 27493) por conteos casi nulos durante 8 años. La ausencia de casos en los datos no es ausencia de violencia.", "transition_phrase": "Pero, ¿por qué hablamos solo de mujeres? Porque la asimetría es estructural ↓"}}, "stat_cards": [{"id": "n_municipios", "value": 179, "label": "municipios analizados"}, {"id": "n_alta_severidad", "value": 107, "pct": 60, "label": "en alta severidad"}, {"id": "icv_promedio_regional", "value": 14.34, "label": "ICV-GEN-F promedio regional"}], "choropleth": {"geo_join_key": "cod_municipio", "n_features": 179, "n_clustered": 177, "icv_range": {"min": 0.0, "max": 52.18}, "cluster_legend": {"alta_severidad": {"cluster_id": 1, "color_hint": "#d73027", "label": "🔴 Alta severidad"}, "moderada_baja": {"cluster_id": 0, "color_hint": "#fc8d59", "label": "🟠 Moderada/Baja"}, "excluded": {"cluster_id": null, "color_hint": "#bdbdbd", "label": "Sin modelo (subregistro estructural)"}}, "features": [{"cod_municipio": "52001", "municipio": "PASTO", "departamento": "NARIÑO", "icv_promedio": 52.18, "cluster_id": 1, "cluster_name": "🔴 Alta severidad", "excluded_from_model": false, "lat": 1.08361, "lon": -77.2061}, {"cod_municipio": "19001", "municipio": "POPAYAN", "departamento": "CAUCA", "icv_promedio": 45.85, "cluster_id": 1, "cluster_name": "🔴 Alta severidad", "excluded_from_model": false, "lat": 2.4717, "lon": -76.59194}, {"cod_municipio": "76892", "municipio": "YUMBO", "departamento": "VALLE DEL CAUCA", "icv_promedio": 34.64, "cluster_id": 1, "cluster_name": "🔴 Alta severidad", "excluded_from_model": false, "lat": 3.59591, "lon": -76.51099}, {"cod_municipio": "76606", "municipio": "RESTREPO", "departamento": "VALLE DEL CAUCA", "icv_promedio": 31.8, "cluster_id": 1, "cluster_name": "🔴 Alta severidad", "excluded_from_model": false, "lat": 3.8223200131253905, "lon": -76.52373163129324}, {"cod_municipio": "76130", "municipio": "CANDELARIA", "departamento": "VALLE DEL CAUCA", "icv_promedio": 31.63, "cluster_id": 1, "cluster_name": "🔴 Alta severidad", "excluded_from_model": false, "lat": 3.408472511929937, "lon": -76.34866567299966}, {"cod_municipio": "76001", "municipio": "CALI", "departamento": "VALLE DEL CAUCA", "icv_promedio": 30.27, "cluster_id": 1, "cluster_name": "🔴 Alta severidad", "excluded_from_model": false, "lat": 3.39904, "lon": -76.57649}, {"cod_municipio": "19548", "municipio": "PIENDAMO  TUNIA", "departamento": "CAUCA", "icv_promedio": 29.75, "cluster_id": 1, "cluster_name": "🔴 Alta severidad", "excluded_from_model": false, "lat": 2.71446, "lon": -76.56472}, {"cod_municipio": "76622", "municipio": "ROLDANILLO", "departamento": "VALLE DEL CAUCA", "icv_promedio": 28.8, "cluster_id": 1, "cluster_name": "🔴 Alta severidad", "excluded_from_model": false, "lat": 4.44357, "lon": -76.16824}, {"cod_municipio": "76616", "municipio": "RIOFRIO", "departamento": "VALLE DEL CAUCA", "icv_promedio": 28.7, "cluster_id": 1, "cluster_name": "🔴 Alta severidad", "excluded_from_model": false, "lat": 4.1095, "lon": -76.37105}, {"cod_municipio": "19573", "municipio": "PUERTO TEJADA", "departamento": "CAUCA", "icv_promedio": 27.91, "cluster_id": 1, "cluster_name": "🔴 Alta severidad", "excluded_from_model": false, "lat": 3.26673, "lon": -76.41846}, {"cod_municipio": "52240", "municipio": "CHACHAGUI", "departamento": "NARIÑO", "icv_promedio": 27.25, "cluster_id": 1, "cluster_name": "🔴 Alta severidad", "excluded_from_model": false, "lat": 1.3865, "lon": -77.26969}, {"cod_municipio": "76895", "municipio": "ZARZAL", "departamento": "VALLE DEL CAUCA", "icv_promedio": 27.15, "cluster_id": 1, "cluster_name": "🔴 Alta severidad", "excluded_from_model": false, "lat": 4.3536, "lon": -76.05065}, {"cod_municipio": "76111", "municipio": "GUADALAJARA DE BUGA", "departamento": "VALLE DEL CAUCA", "icv_promedio": 26.99, "cluster_id": 1, "cluster_name": "🔴 Alta severidad", "excluded_from_model": false, "lat": 3.85525, "lon": -76.10514}, {"cod_municipio": "76318", "municipio": "GUACARI", "departamento": "VALLE DEL CAUCA", "icv_promedio": 26.82, "cluster_id": 1, "cluster_name": "🔴 Alta severidad", "excluded_from_model": false, "lat": 3.78378, "lon": -76.29449}, {"cod_municipio": "52540", "municipio": "POLICARPA", "departamento": "NARIÑO", "icv_promedio": 26.55, "cluster_id": 1, "cluster_name": "🔴 Alta severidad", "excluded_from_model": false, "lat": 1.73535, "lon": -77.48134}, {"cod_municipio": "76377", "municipio": "LA CUMBRE", "departamento": "VALLE DEL CAUCA", "icv_promedio": 26.47, "cluster_id": 1, "cluster_name": "🔴 Alta severidad", "excluded_from_model": false, "lat": 3.6943, "lon": -76.5899}, {"cod_municipio": "76670", "municipio": "SAN PEDRO", "departamento": "VALLE DEL CAUCA", "icv_promedio": 25.65, "cluster_id": 1, "cluster_name": "🔴 Alta severidad", "excluded_from_model": false, "lat": 3.9925910107012026, "lon": -76.22990373737325}, {"cod_municipio": "76036", "municipio": "ANDALUCIA", "departamento": "VALLE DEL CAUCA", "icv_promedio": 25.42, "cluster_id": 1, "cluster_name": "🔴 Alta severidad", "excluded_from_model": false, "lat": 4.14485, "lon": -76.1647}, {"cod_municipio": "52356", "municipio": "IPIALES", "departamento": "NARIÑO", "icv_promedio": 25.25, "cluster_id": 1, "cluster_name": "🔴 Alta severidad", "excluded_from_model": false, "lat": 0.8287535989713497, "lon": -77.64035810479157}, {"cod_municipio": "76869", "municipio": "VIJES", "departamento": "VALLE DEL CAUCA", "icv_promedio": 25.23, "cluster_id": 1, "cluster_name": "🔴 Alta severidad", "excluded_from_model": false, "lat": 3.74366, "lon": -76.47065}, {"cod_municipio": "76020", "municipio": "ALCALA", "departamento": "VALLE DEL CAUCA", "icv_promedio": 24.88, "cluster_id": 1, "cluster_name": "🔴 Alta severidad", "excluded_from_model": false, "lat": 4.6789, "lon": -75.78298}, {"cod_municipio": "19698", "municipio": "SANTANDER DE QUILICHAO", "departamento": "CAUCA", "icv_promedio": 24.87, "cluster_id": 1, "cluster_name": "🔴 Alta severidad", "excluded_from_model": false, "lat": 2.98447, "lon": -76.49873}, {"cod_municipio": "52399", "municipio": "LA UNION", "departamento": "NARIÑO", "icv_promedio": 24.78, "cluster_id": 1, "cluster_name": "🔴 Alta severidad", "excluded_from_model": false, "lat": 1.6197, "lon": -77.14285}, {"cod_municipio": "76890", "municipio": "YOTOCO", "departamento": "VALLE DEL CAUCA", "icv_promedio": 24.67, "cluster_id": 1, "cluster_name": "🔴 Alta severidad", "excluded_from_model": false, "lat": 3.90413, "lon": -76.3908}, {"cod_municipio": "76147", "municipio": "CARTAGO", "departamento": "VALLE DEL CAUCA", "icv_promedio": 24.28, "cluster_id": 1, "cluster_name": "🔴 Alta severidad", "excluded_from_model": false, "lat": 4.70685, "lon": -75.91791}, {"cod_municipio": "76403", "municipio": "LA VICTORIA", "departamento": "VALLE DEL CAUCA", "icv_promedio": 23.63, "cluster_id": 1, "cluster_name": "🔴 Alta severidad", "excluded_from_model": false, "lat": 4.524661037994595, "lon": -76.0366283600329}, {"cod_municipio": "19807", "municipio": "TIMBIO", "departamento": "CAUCA", "icv_promedio": 23.49, "cluster_id": 1, "cluster_name": "🔴 Alta severidad", "excluded_from_model": false, "lat": 2.36963, "lon": -76.71052}, {"cod_municipio": "19845", "municipio": "VILLA RICA", "departamento": "CAUCA", "icv_promedio": 23.43, "cluster_id": 1, "cluster_name": "🔴 Alta severidad", "excluded_from_model": false, "lat": 3.18064, "lon": -76.46444}, {"cod_municipio": "76250", "municipio": "EL DOVIO", "departamento": "VALLE DEL CAUCA", "icv_promedio": 22.83, "cluster_id": 1, "cluster_name": "🔴 Alta severidad", "excluded_from_model": false, "lat": 4.53998, "lon": -76.28763}, {"cod_municipio": "76863", "municipio": "VERSALLES", "departamento": "VALLE DEL CAUCA", "icv_promedio": 22.51, "cluster_id": 1, "cluster_name": "🔴 Alta severidad", "excluded_from_model": false, "lat": 4.62259, "lon": -76.2179}, {"cod_municipio": "76246", "municipio": "EL CAIRO", "departamento": "VALLE DEL CAUCA", "icv_promedio": 22.4, "cluster_id": 1, "cluster_name": "🔴 Alta severidad", "excluded_from_model": false, "lat": 4.75606, "lon": -76.21503}, {"cod_municipio": "27075", "municipio": "BAHIA SOLANO", "departamento": "CHOCO", "icv_promedio": 22.32, "cluster_id": 1, "cluster_name": "🔴 Alta severidad", "excluded_from_model": false, "lat": 6.29015, "lon": -77.35383}, {"cod_municipio": "76828", "municipio": "TRUJILLO", "departamento": "VALLE DEL CAUCA", "icv_promedio": 22.08, "cluster_id": 1, "cluster_name": "🔴 Alta severidad", "excluded_from_model": false, "lat": 4.23327, "lon": -76.34293}, {"cod_municipio": "76563", "municipio": "PRADERA", "departamento": "VALLE DEL CAUCA", "icv_promedio": 22.08, "cluster_id": 1, "cluster_name": "🔴 Alta severidad", "excluded_from_model": false, "lat": 3.42064, "lon": -76.17842}, {"cod_municipio": "76126", "municipio": "CALIMA", "departamento": "VALLE DEL CAUCA", "icv_promedio": 21.93, "cluster_id": 1, "cluster_name": "🔴 Alta severidad", "excluded_from_model": false, "lat": 3.94439, "lon": -76.62778}, {"cod_municipio": "76113", "municipio": "BUGALAGRANDE", "departamento": "VALLE DEL CAUCA", "icv_promedio": 21.76, "cluster_id": 1, "cluster_name": "🔴 Alta severidad", "excluded_from_model": false, "lat": 4.19685, "lon": -76.08961}, {"cod_municipio": "27245", "municipio": "EL CARMEN DE ATRATO", "departamento": "CHOCO", "icv_promedio": 21.44, "cluster_id": 1, "cluster_name": "🔴 Alta severidad", "excluded_from_model": false, "lat": 5.81094, "lon": -76.19189}, {"cod_municipio": "76834", "municipio": "TULUA", "departamento": "VALLE DEL CAUCA", "icv_promedio": 21.25, "cluster_id": 1, "cluster_name": "🔴 Alta severidad", "excluded_from_model": false, "lat": 4.02841, "lon": -76.0325}, {"cod_municipio": "52560", "municipio": "POTOSI", "departamento": "NARIÑO", "icv_promedio": 21.02, "cluster_id": 1, "cluster_name": "🔴 Alta severidad", "excluded_from_model": false, "lat": 0.72268, "lon": -77.42481}, {"cod_municipio": "76736", "municipio": "SEVILLA", "departamento": "VALLE DEL CAUCA", "icv_promedio": 20.75, "cluster_id": 1, "cluster_name": "🔴 Alta severidad", "excluded_from_model": false, "lat": 4.19341, "lon": -75.88818}, {"cod_municipio": "19142", "municipio": "CALOTO", "departamento": "CAUCA", "icv_promedio": 20.72, "cluster_id": 1, "cluster_name": "🔴 Alta severidad", "excluded_from_model": false, "lat": 3.04593, "lon": -76.36638}, {"cod_municipio": "76100", "municipio": "BOLIVAR", "departamento": "VALLE DEL CAUCA", "icv_promedio": 20.68, "cluster_id": 1, "cluster_name": "🔴 Alta severidad", "excluded_from_model": false, "lat": 4.36368, "lon": -76.36486}, {"cod_municipio": "76497", "municipio": "OBANDO", "departamento": "VALLE DEL CAUCA", "icv_promedio": 20.61, "cluster_id": 1, "cluster_name": "🔴 Alta severidad", "excluded_from_model": false, "lat": 4.59759, "lon": -75.9492}, {"cod_municipio": "19130", "municipio": "CAJIBIO", "departamento": "CAUCA", "icv_promedio": 20.33, "cluster_id": 1, "cluster_name": "🔴 Alta severidad", "excluded_from_model": false, "lat": 2.64321, "lon": -76.70139}, {"cod_municipio": "76520", "municipio": "PALMIRA", "departamento": "VALLE DEL CAUCA", "icv_promedio": 20.01, "cluster_id": 1, "cluster_name": "🔴 Alta severidad", "excluded_from_model": false, "lat": 3.55839, "lon": -76.2278}, {"cod_municipio": "19300", "municipio": "GUACHENE", "departamento": "CAUCA", "icv_promedio": 20.01, "cluster_id": 1, "cluster_name": "🔴 Alta severidad", "excluded_from_model": false, "lat": 3.14439, "lon": -76.39235}, {"cod_municipio": "76122", "municipio": "CAICEDONIA", "departamento": "VALLE DEL CAUCA", "icv_promedio": 19.83, "cluster_id": 1, "cluster_name": "🔴 Alta severidad", "excluded_from_model": false, "lat": 4.309, "lon": -75.83673}, {"cod_municipio": "27050", "municipio": "ATRATO", "departamento": "CHOCO", "icv_promedio": 19.11, "cluster_id": 1, "cluster_name": "🔴 Alta severidad", "excluded_from_model": false, "lat": 5.56064, "lon": -76.60612}, {"cod_municipio": "76233", "municipio": "DAGUA", "departamento": "VALLE DEL CAUCA", "icv_promedio": 18.89, "cluster_id": 1, "cluster_name": "🔴 Alta severidad", "excluded_from_model": false, "lat": 3.64982, "lon": -76.72039}, {"cod_municipio": "76054", "municipio": "ARGELIA", "departamento": "VALLE DEL CAUCA", "icv_promedio": 18.82, "cluster_id": 1, "cluster_name": "🔴 Alta severidad", "excluded_from_model": false, "lat": 4.70429, "lon": -76.14165}, {"cod_municipio": "19256", "municipio": "EL TAMBO", "departamento": "CAUCA", "icv_promedio": 18.73, "cluster_id": 1, "cluster_name": "🔴 Alta severidad", "excluded_from_model": false, "lat": 2.53449, "lon": -77.00511}, {"cod_municipio": "19392", "municipio": "LA SIERRA", "departamento": "CAUCA", "icv_promedio": 18.54, "cluster_id": 1, "cluster_name": "🔴 Alta severidad", "excluded_from_model": false, "lat": 2.18747, "lon": -76.78228}, {"cod_municipio": "76845", "municipio": "ULLOA", "departamento": "VALLE DEL CAUCA", "icv_promedio": 18.07, "cluster_id": 1, "cluster_name": "🔴 Alta severidad", "excluded_from_model": false, "lat": 4.70772, "lon": -75.77836}, {"cod_municipio": "76400", "municipio": "LA UNION", "departamento": "VALLE DEL CAUCA", "icv_promedio": 17.81, "cluster_id": 1, "cluster_name": "🔴 Alta severidad", "excluded_from_model": false, "lat": 4.53793, "lon": -76.1033}, {"cod_municipio": "52051", "municipio": "ARBOLEDA", "departamento": "NARIÑO", "icv_promedio": 17.73, "cluster_id": 1, "cluster_name": "🔴 Alta severidad", "excluded_from_model": false, "lat": 1.48005, "lon": -77.12985}, {"cod_municipio": "19622", "municipio": "ROSAS", "departamento": "CAUCA", "icv_promedio": 17.65, "cluster_id": 1, "cluster_name": "🔴 Alta severidad", "excluded_from_model": false, "lat": 2.25088, "lon": -76.75293}, {"cod_municipio": "19532", "municipio": "PATIA", "departamento": "CAUCA", "icv_promedio": 17.54, "cluster_id": 1, "cluster_name": "🔴 Alta severidad", "excluded_from_model": false, "lat": 2.14817, "lon": -77.05793}, {"cod_municipio": "76364", "municipio": "JAMUNDI", "departamento": "VALLE DEL CAUCA", "icv_promedio": 17.46, "cluster_id": 1, "cluster_name": "🔴 Alta severidad", "excluded_from_model": false, "lat": 3.2139, "lon": -76.6276}, {"cod_municipio": "52694", "municipio": "SAN PEDRO DE CARTAGO", "departamento": "NARIÑO", "icv_promedio": 17.37, "cluster_id": 1, "cluster_name": "🔴 Alta severidad", "excluded_from_model": false, "lat": 1.53682, "lon": -77.1014}, {"cod_municipio": "52260", "municipio": "EL TAMBO", "departamento": "NARIÑO", "icv_promedio": 17.35, "cluster_id": 1, "cluster_name": "🔴 Alta severidad", "excluded_from_model": false, "lat": 1.43026, "lon": -77.38312}, {"cod_municipio": "76306", "municipio": "GINEBRA", "departamento": "VALLE DEL CAUCA", "icv_promedio": 17.33, "cluster_id": 1, "cluster_name": "🔴 Alta severidad", "excluded_from_model": false, "lat": 3.7441, "lon": -76.19082}, {"cod_municipio": "52683", "municipio": "SANDONA", "departamento": "NARIÑO", "icv_promedio": 17.17, "cluster_id": 1, "cluster_name": "🔴 Alta severidad", "excluded_from_model": false, "lat": 1.28811, "lon": -77.4567}, {"cod_municipio": "27361", "municipio": "ISTMINA", "departamento": "CHOCO", "icv_promedio": 17.11, "cluster_id": 1, "cluster_name": "🔴 Alta severidad", "excluded_from_model": false, "lat": 4.73984, "lon": -76.86916}, {"cod_municipio": "76248", "municipio": "EL CERRITO", "departamento": "VALLE DEL CAUCA", "icv_promedio": 16.98, "cluster_id": 1, "cluster_name": "🔴 Alta severidad", "excluded_from_model": false, "lat": 3.67599, "lon": -76.20916}, {"cod_municipio": "19455", "municipio": "MIRANDA", "departamento": "CAUCA", "icv_promedio": 16.71, "cluster_id": 1, "cluster_name": "🔴 Alta severidad", "excluded_from_model": false, "lat": 3.22824, "lon": -76.21671}, {"cod_municipio": "19355", "municipio": "INZA", "departamento": "CAUCA", "icv_promedio": 16.47, "cluster_id": 1, "cluster_name": "🔴 Alta severidad", "excluded_from_model": false, "lat": 2.49906, "lon": -76.13763}, {"cod_municipio": "27001", "municipio": "QUIBDO", "departamento": "CHOCO", "icv_promedio": 16.3, "cluster_id": 1, "cluster_name": "🔴 Alta severidad", "excluded_from_model": false, "lat": 5.93895, "lon": -76.66368}, {"cod_municipio": "52207", "municipio": "CONSACA", "departamento": "NARIÑO", "icv_promedio": 15.93, "cluster_id": 1, "cluster_name": "🔴 Alta severidad", "excluded_from_model": false, "lat": 1.20907, "lon": -77.44064}, {"cod_municipio": "76041", "municipio": "ANSERMANUEVO", "departamento": "VALLE DEL CAUCA", "icv_promedio": 15.57, "cluster_id": 1, "cluster_name": "🔴 Alta severidad", "excluded_from_model": false, "lat": 4.79593, "lon": -76.02963}, {"cod_municipio": "76275", "municipio": "FLORIDA", "departamento": "VALLE DEL CAUCA", "icv_promedio": 15.42, "cluster_id": 1, "cluster_name": "🔴 Alta severidad", "excluded_from_model": false, "lat": 3.3041, "lon": -76.16477}, {"cod_municipio": "52233", "municipio": "CUMBITARA", "departamento": "NARIÑO", "icv_promedio": 15.24, "cluster_id": 1, "cluster_name": "🔴 Alta severidad", "excluded_from_model": false, "lat": 1.72559, "lon": -77.59282}, {"cod_municipio": "52405", "municipio": "LEIVA", "departamento": "NARIÑO", "icv_promedio": 15.03, "cluster_id": 1, "cluster_name": "🔴 Alta severidad", "excluded_from_model": false, "lat": 1.93898, "lon": -77.31194}, {"cod_municipio": "19212", "municipio": "CORINTO", "departamento": "CAUCA", "icv_promedio": 14.67, "cluster_id": 1, "cluster_name": "🔴 Alta severidad", "excluded_from_model": false, "lat": 3.13675, "lon": -76.20965}, {"cod_municipio": "19397", "municipio": "LA VEGA", "departamento": "CAUCA", "icv_promedio": 13.97, "cluster_id": 1, "cluster_name": "🔴 Alta severidad", "excluded_from_model": false, "lat": 2.001735, "lon": -76.778767}, {"cod_municipio": "19821", "municipio": "TORIBIO", "departamento": "CAUCA", "icv_promedio": 13.87, "cluster_id": 1, "cluster_name": "🔴 Alta severidad", "excluded_from_model": false, "lat": 2.97577, "lon": -76.20332}, {"cod_municipio": "52036", "municipio": "ANCUYA", "departamento": "NARIÑO", "icv_promedio": 13.76, "cluster_id": 1, "cluster_name": "🔴 Alta severidad", "excluded_from_model": false, "lat": 1.24525, "lon": -77.53116}, {"cod_municipio": "19760", "municipio": "SOTARA PAISPAMBA", "departamento": "CAUCA", "icv_promedio": 13.74, "cluster_id": 1, "cluster_name": "🔴 Alta severidad", "excluded_from_model": false, "lat": 2.23182, "lon": -76.61147}, {"cod_municipio": "19050", "municipio": "ARGELIA", "departamento": "CAUCA", "icv_promedio": 13.67, "cluster_id": 1, "cluster_name": "🔴 Alta severidad", "excluded_from_model": false, "lat": 2.32934, "lon": -77.26315}, {"cod_municipio": "27205", "municipio": "CONDOTO", "departamento": "CHOCO", "icv_promedio": 13.53, "cluster_id": 1, "cluster_name": "🔴 Alta severidad", "excluded_from_model": false, "lat": 5.07372, "lon": -76.52751}, {"cod_municipio": "19701", "municipio": "SANTA ROSA", "departamento": "CAUCA", "icv_promedio": 13.22, "cluster_id": 1, "cluster_name": "🔴 Alta severidad", "excluded_from_model": false, "lat": 1.7004849356153118, "lon": -76.57342388473813}, {"cod_municipio": "52110", "municipio": "BUESACO", "departamento": "NARIÑO", "icv_promedio": 13.22, "cluster_id": 1, "cluster_name": "🔴 Alta severidad", "excluded_from_model": false, "lat": 1.31522, "lon": -77.11637}, {"cod_municipio": "52573", "municipio": "PUERRES", "departamento": "NARIÑO", "icv_promedio": 13.18, "cluster_id": 1, "cluster_name": "🔴 Alta severidad", "excluded_from_model": false, "lat": 0.82652, "lon": -77.32225}, {"cod_municipio": "52019", "municipio": "ALBAN", "departamento": "NARIÑO", "icv_promedio": 13.17, "cluster_id": 1, "cluster_name": "🔴 Alta severidad", "excluded_from_model": false, "lat": 1.4737103337802815, "lon": -77.08120375188157}, {"cod_municipio": "52687", "municipio": "SAN LORENZO", "departamento": "NARIÑO", "icv_promedio": 13.11, "cluster_id": 1, "cluster_name": "🔴 Alta severidad", "excluded_from_model": false, "lat": 1.54214, "lon": -77.21873}, {"cod_municipio": "19533", "municipio": "PIAMONTE", "departamento": "CAUCA", "icv_promedio": 13.08, "cluster_id": 1, "cluster_name": "🔴 Alta severidad", "excluded_from_model": false, "lat": 1.1189660371001802, "lon": -76.32590034399753}, {"cod_municipio": "52480", "municipio": "NARIÑO", "departamento": "NARIÑO", "icv_promedio": 13.01, "cluster_id": 0, "cluster_name": "🟠 Moderada/Baja", "excluded_from_model": false, "lat": 1.2890335113757159, "lon": -77.36026861120237}, {"cod_municipio": "19290", "municipio": "FLORENCIA", "departamento": "CAUCA", "icv_promedio": 13.0, "cluster_id": 1, "cluster_name": "🔴 Alta severidad", "excluded_from_model": false, "lat": 1.6834958290231044, "lon": -77.07319586017782}, {"cod_municipio": "52585", "municipio": "PUPIALES", "departamento": "NARIÑO", "icv_promedio": 12.91, "cluster_id": 1, "cluster_name": "🔴 Alta severidad", "excluded_from_model": false, "lat": 0.91677, "lon": -77.63337}, {"cod_municipio": "27787", "municipio": "TADO", "departamento": "CHOCO", "icv_promedio": 12.8, "cluster_id": 1, "cluster_name": "🔴 Alta severidad", "excluded_from_model": false, "lat": 5.2661, "lon": -76.3311}, {"cod_municipio": "52385", "municipio": "LA LLANADA", "departamento": "NARIÑO", "icv_promedio": 12.5, "cluster_id": 1, "cluster_name": "🔴 Alta severidad", "excluded_from_model": false, "lat": 1.55401, "lon": -77.70317}, {"cod_municipio": "52786", "municipio": "TAMINANGO", "departamento": "NARIÑO", "icv_promedio": 12.38, "cluster_id": 1, "cluster_name": "🔴 Alta severidad", "excluded_from_model": false, "lat": 1.59166, "lon": -77.32525}, {"cod_municipio": "19137", "municipio": "CALDONO", "departamento": "CAUCA", "icv_promedio": 12.27, "cluster_id": 1, "cluster_name": "🔴 Alta severidad", "excluded_from_model": false, "lat": 2.81033, "lon": -76.46452}, {"cod_municipio": "76243", "municipio": "EL AGUILA", "departamento": "VALLE DEL CAUCA", "icv_promedio": 12.17, "cluster_id": 1, "cluster_name": "🔴 Alta severidad", "excluded_from_model": false, "lat": 4.91756, "lon": -76.06601}, {"cod_municipio": "52224", "municipio": "CUASPUD CARLOSAMA", "departamento": "NARIÑO", "icv_promedio": 12.07, "cluster_id": 1, "cluster_name": "🔴 Alta severidad", "excluded_from_model": false, "lat": 0.87543, "lon": -77.73592}, {"cod_municipio": "19318", "municipio": "GUAPI", "departamento": "CAUCA", "icv_promedio": 12.06, "cluster_id": 1, "cluster_name": "🔴 Alta severidad", "excluded_from_model": false, "lat": 2.41327, "lon": -77.69048}, {"cod_municipio": "19075", "municipio": "BALBOA", "departamento": "CAUCA", "icv_promedio": 12.0, "cluster_id": 1, "cluster_name": "🔴 Alta severidad", "excluded_from_model": false, "lat": 2.08473, "lon": -77.20881}, {"cod_municipio": "19473", "municipio": "MORALES", "departamento": "CAUCA", "icv_promedio": 11.91, "cluster_id": 1, "cluster_name": "🔴 Alta severidad", "excluded_from_model": false, "lat": 2.7570846024330504, "lon": -76.63045230139552}, {"cod_municipio": "52788", "municipio": "TANGUA", "departamento": "NARIÑO", "icv_promedio": 11.81, "cluster_id": 0, "cluster_name": "🟠 Moderada/Baja", "excluded_from_model": false, "lat": 1.06408, "lon": -77.35063}, {"cod_municipio": "19100", "municipio": "BOLIVAR", "departamento": "CAUCA", "icv_promedio": 11.79, "cluster_id": 1, "cluster_name": "🔴 Alta severidad", "excluded_from_model": false, "lat": 1.85395, "lon": -76.96337}, {"cod_municipio": "19824", "municipio": "TOTORO", "departamento": "CAUCA", "icv_promedio": 11.53, "cluster_id": 1, "cluster_name": "🔴 Alta severidad", "excluded_from_model": false, "lat": 2.5045, "lon": -76.39047}, {"cod_municipio": "52838", "municipio": "TUQUERRES", "departamento": "NARIÑO", "icv_promedio": 11.52, "cluster_id": 1, "cluster_name": "🔴 Alta severidad", "excluded_from_model": false, "lat": 1.089000424398012, "lon": -77.61879126728262}, {"cod_municipio": "52215", "municipio": "CORDOBA", "departamento": "NARIÑO", "icv_promedio": 11.14, "cluster_id": 1, "cluster_name": "🔴 Alta severidad", "excluded_from_model": false, "lat": 0.8552248189544404, "lon": -77.51835149925932}, {"cod_municipio": "52418", "municipio": "LOS ANDES", "departamento": "NARIÑO", "icv_promedio": 11.14, "cluster_id": 0, "cluster_name": "🟠 Moderada/Baja", "excluded_from_model": false, "lat": 1.6726, "lon": -77.71054}, {"cod_municipio": "52320", "municipio": "GUAITARILLA", "departamento": "NARIÑO", "icv_promedio": 11.13, "cluster_id": 1, "cluster_name": "🔴 Alta severidad", "excluded_from_model": false, "lat": 1.15137, "lon": -77.53011}, {"cod_municipio": "52254", "municipio": "EL PENOL", "departamento": "NARIÑO", "icv_promedio": 10.96, "cluster_id": 0, "cluster_name": "🟠 Moderada/Baja", "excluded_from_model": false, "lat": 1.51228, "lon": -77.43051}, {"cod_municipio": "27660", "municipio": "SAN JOSE DEL PALMAR", "departamento": "CHOCO", "icv_promedio": 10.87, "cluster_id": 0, "cluster_name": "🟠 Moderada/Baja", "excluded_from_model": false, "lat": 4.95874, "lon": -76.28002}, {"cod_municipio": "76823", "municipio": "TORO", "departamento": "VALLE DEL CAUCA", "icv_promedio": 10.73, "cluster_id": 1, "cluster_name": "🔴 Alta severidad", "excluded_from_model": false, "lat": 4.63842, "lon": -76.08106}, {"cod_municipio": "76109", "municipio": "BUENAVENTURA", "departamento": "VALLE DEL CAUCA", "icv_promedio": 10.62, "cluster_id": 1, "cluster_name": "🔴 Alta severidad", "excluded_from_model": false, "lat": 3.61149, "lon": -77.08588}, {"cod_municipio": "19450", "municipio": "MERCADERES", "departamento": "CAUCA", "icv_promedio": 10.6, "cluster_id": 1, "cluster_name": "🔴 Alta severidad", "excluded_from_model": false, "lat": 1.79383, "lon": -77.1806}, {"cod_municipio": "27006", "municipio": "ACANDI", "departamento": "CHOCO", "icv_promedio": 10.37, "cluster_id": 1, "cluster_name": "🔴 Alta severidad", "excluded_from_model": false, "lat": 8.43419, "lon": -77.28967}, {"cod_municipio": "52885", "municipio": "YACUANQUER", "departamento": "NARIÑO", "icv_promedio": 10.35, "cluster_id": 0, "cluster_name": "🟠 Moderada/Baja", "excluded_from_model": false, "lat": 1.12555, "lon": -77.42468}, {"cod_municipio": "19022", "municipio": "ALMAGUER", "departamento": "CAUCA", "icv_promedio": 10.28, "cluster_id": 0, "cluster_name": "🟠 Moderada/Baja", "excluded_from_model": false, "lat": 1.91244, "lon": -76.83495}, {"cod_municipio": "52352", "municipio": "ILES", "departamento": "NARIÑO", "icv_promedio": 10.27, "cluster_id": 0, "cluster_name": "🟠 Moderada/Baja", "excluded_from_model": false, "lat": 0.98053, "lon": -77.51866}, {"cod_municipio": "52378", "municipio": "LA CRUZ", "departamento": "NARIÑO", "icv_promedio": 10.17, "cluster_id": 0, "cluster_name": "🟠 Moderada/Baja", "excluded_from_model": false, "lat": 1.58418, "lon": -76.92335}, {"cod_municipio": "19517", "municipio": "PAEZ", "departamento": "CAUCA", "icv_promedio": 10.16, "cluster_id": 1, "cluster_name": "🔴 Alta severidad", "excluded_from_model": false, "lat": 2.4796591532358154, "lon": -75.84764978474509}, {"cod_municipio": "19693", "municipio": "SAN SEBASTIAN", "departamento": "CAUCA", "icv_promedio": 9.92, "cluster_id": 0, "cluster_name": "🟠 Moderada/Baja", "excluded_from_model": false, "lat": 1.85626, "lon": -76.71652}, {"cod_municipio": "27413", "municipio": "LLORO", "departamento": "CHOCO", "icv_promedio": 9.9, "cluster_id": 1, "cluster_name": "🔴 Alta severidad", "excluded_from_model": false, "lat": 5.5851, "lon": -76.38544}, {"cod_municipio": "52258", "municipio": "EL TABLON DE GOMEZ", "departamento": "NARIÑO", "icv_promedio": 9.47, "cluster_id": 0, "cluster_name": "🟠 Moderada/Baja", "excluded_from_model": false, "lat": 1.40943, "lon": -76.98527}, {"cod_municipio": "52381", "municipio": "LA FLORIDA", "departamento": "NARIÑO", "icv_promedio": 9.44, "cluster_id": 0, "cluster_name": "🟠 Moderada/Baja", "excluded_from_model": false, "lat": 1.33393, "lon": -77.38823}, {"cod_municipio": "27810", "municipio": "UNION PANAMERICANA", "departamento": "CHOCO", "icv_promedio": 9.34, "cluster_id": 0, "cluster_name": "🟠 Moderada/Baja", "excluded_from_model": false, "lat": 5.28528, "lon": -76.6454}, {"cod_municipio": "19780", "municipio": "SUAREZ", "departamento": "CAUCA", "icv_promedio": 9.33, "cluster_id": 0, "cluster_name": "🟠 Moderada/Baja", "excluded_from_model": false, "lat": 2.93687, "lon": -76.74582}, {"cod_municipio": "52835", "municipio": "SAN ANDRES DE TUMACO", "departamento": "NARIÑO", "icv_promedio": 9.01, "cluster_id": 0, "cluster_name": "🟠 Moderada/Baja", "excluded_from_model": false, "lat": 1.7874334882749436, "lon": -78.78501151295293}, {"cod_municipio": "19785", "municipio": "SUCRE", "departamento": "CAUCA", "icv_promedio": 8.99, "cluster_id": 0, "cluster_name": "🟠 Moderada/Baja", "excluded_from_model": false, "lat": 2.05774, "lon": -76.90994}, {"cod_municipio": "19513", "municipio": "PADILLA", "departamento": "CAUCA", "icv_promedio": 8.99, "cluster_id": 0, "cluster_name": "🟠 Moderada/Baja", "excluded_from_model": false, "lat": 3.19473, "lon": -76.33624}, {"cod_municipio": "52354", "municipio": "IMUES", "departamento": "NARIÑO", "icv_promedio": 8.94, "cluster_id": 0, "cluster_name": "🟠 Moderada/Baja", "excluded_from_model": false, "lat": 1.07288, "lon": -77.50151}, {"cod_municipio": "19743", "municipio": "SILVIA", "departamento": "CAUCA", "icv_promedio": 8.83, "cluster_id": 0, "cluster_name": "🟠 Moderada/Baja", "excluded_from_model": false, "lat": 2.65129, "lon": -76.35057}, {"cod_municipio": "52022", "municipio": "ALDANA", "departamento": "NARIÑO", "icv_promedio": 8.75, "cluster_id": 0, "cluster_name": "🟠 Moderada/Baja", "excluded_from_model": false, "lat": 0.91343, "lon": -77.69539}, {"cod_municipio": "27580", "municipio": "RIO IRO", "departamento": "CHOCO", "icv_promedio": 8.69, "cluster_id": 0, "cluster_name": "🟠 Moderada/Baja", "excluded_from_model": false, "lat": 5.17267, "lon": -76.48446}, {"cod_municipio": "52699", "municipio": "SANTACRUZ", "departamento": "NARIÑO", "icv_promedio": 8.46, "cluster_id": 0, "cluster_name": "🟠 Moderada/Baja", "excluded_from_model": false, "lat": 1.28518, "lon": -77.74457}, {"cod_municipio": "52411", "municipio": "LINARES", "departamento": "NARIÑO", "icv_promedio": 8.43, "cluster_id": 0, "cluster_name": "🟠 Moderada/Baja", "excluded_from_model": false, "lat": 1.39517, "lon": -77.52094}, {"cod_municipio": "52612", "municipio": "RICAURTE", "departamento": "NARIÑO", "icv_promedio": 8.41, "cluster_id": 0, "cluster_name": "🟠 Moderada/Baja", "excluded_from_model": false, "lat": 1.212596660579095, "lon": -77.99448433259188}, {"cod_municipio": "19110", "municipio": "BUENOS AIRES", "departamento": "CAUCA", "icv_promedio": 8.07, "cluster_id": 0, "cluster_name": "🟠 Moderada/Baja", "excluded_from_model": false, "lat": 3.04592, "lon": -76.67901}, {"cod_municipio": "52250", "municipio": "EL CHARCO", "departamento": "NARIÑO", "icv_promedio": 7.95, "cluster_id": 0, "cluster_name": "🟠 Moderada/Baja", "excluded_from_model": false, "lat": 2.480618682084645, "lon": -78.10791504268815}, {"cod_municipio": "27615", "municipio": "RIOSUCIO", "departamento": "CHOCO", "icv_promedio": 7.83, "cluster_id": 0, "cluster_name": "🟠 Moderada/Baja", "excluded_from_model": false, "lat": 7.437941750916095, "lon": -77.11361475877221}, {"cod_municipio": "27491", "municipio": "NOVITA", "departamento": "CHOCO", "icv_promedio": 7.76, "cluster_id": 0, "cluster_name": "🟠 Moderada/Baja", "excluded_from_model": false, "lat": 4.85339, "lon": -76.61824}, {"cod_municipio": "27495", "municipio": "NUQUI", "departamento": "CHOCO", "icv_promedio": 7.41, "cluster_id": 0, "cluster_name": "🟠 Moderada/Baja", "excluded_from_model": false, "lat": 5.69006, "lon": -77.29298}, {"cod_municipio": "52287", "municipio": "FUNES", "departamento": "NARIÑO", "icv_promedio": 7.38, "cluster_id": 0, "cluster_name": "🟠 Moderada/Baja", "excluded_from_model": false, "lat": 0.91422, "lon": -77.32843}, {"cod_municipio": "19364", "municipio": "JAMBALO", "departamento": "CAUCA", "icv_promedio": 7.31, "cluster_id": 0, "cluster_name": "🟠 Moderada/Baja", "excluded_from_model": false, "lat": 2.84981, "lon": -76.31125}, {"cod_municipio": "52435", "municipio": "MALLAMA", "departamento": "NARIÑO", "icv_promedio": 7.26, "cluster_id": 0, "cluster_name": "🟠 Moderada/Baja", "excluded_from_model": false, "lat": 1.15595, "lon": -77.84664}, {"cod_municipio": "27800", "municipio": "UNGUIA", "departamento": "CHOCO", "icv_promedio": 7.17, "cluster_id": 0, "cluster_name": "🟠 Moderada/Baja", "excluded_from_model": false, "lat": 8.11728, "lon": -77.10373}, {"cod_municipio": "52203", "municipio": "COLON", "departamento": "NARIÑO", "icv_promedio": 7.07, "cluster_id": 0, "cluster_name": "🟠 Moderada/Baja", "excluded_from_model": false, "lat": 1.63633, "lon": -77.04732}, {"cod_municipio": "52678", "municipio": "SAMANIEGO", "departamento": "NARIÑO", "icv_promedio": 6.75, "cluster_id": 0, "cluster_name": "🟠 Moderada/Baja", "excluded_from_model": false, "lat": 1.43056, "lon": -77.6918}, {"cod_municipio": "52083", "municipio": "BELEN", "departamento": "NARIÑO", "icv_promedio": 6.74, "cluster_id": 0, "cluster_name": "🟠 Moderada/Baja", "excluded_from_model": false, "lat": 1.5956983678790244, "lon": -77.01640253844745}, {"cod_municipio": "52693", "municipio": "SAN PABLO", "departamento": "NARIÑO", "icv_promedio": 6.64, "cluster_id": 0, "cluster_name": "🟠 Moderada/Baja", "excluded_from_model": false, "lat": 1.669443774613568, "lon": -77.0139488564125}, {"cod_municipio": "27745", "municipio": "SIPI", "departamento": "CHOCO", "icv_promedio": 6.63, "cluster_id": 0, "cluster_name": "🟠 Moderada/Baja", "excluded_from_model": false, "lat": 4.59442, "lon": -76.54194}, {"cod_municipio": "52323", "municipio": "GUALMATAN", "departamento": "NARIÑO", "icv_promedio": 6.58, "cluster_id": 0, "cluster_name": "🟠 Moderada/Baja", "excluded_from_model": false, "lat": 0.92864, "lon": -77.58262}, {"cod_municipio": "52317", "municipio": "GUACHUCAL", "departamento": "NARIÑO", "icv_promedio": 6.54, "cluster_id": 0, "cluster_name": "🟠 Moderada/Baja", "excluded_from_model": false, "lat": 0.97504, "lon": -77.73759}, {"cod_municipio": "52079", "municipio": "BARBACOAS", "departamento": "NARIÑO", "icv_promedio": 6.44, "cluster_id": 0, "cluster_name": "🟠 Moderada/Baja", "excluded_from_model": false, "lat": 1.6733939300366985, "lon": -78.13744265588439}, {"cod_municipio": "19585", "municipio": "PURACE", "departamento": "CAUCA", "icv_promedio": 6.31, "cluster_id": 0, "cluster_name": "🟠 Moderada/Baja", "excluded_from_model": false, "lat": 2.28178, "lon": -76.37116}, {"cod_municipio": "52210", "municipio": "CONTADERO", "departamento": "NARIÑO", "icv_promedio": 6.2, "cluster_id": 0, "cluster_name": "🟠 Moderada/Baja", "excluded_from_model": false, "lat": 0.93267, "lon": -77.52809}, {"cod_municipio": "52227", "municipio": "CUMBAL", "departamento": "NARIÑO", "icv_promedio": 6.0, "cluster_id": 0, "cluster_name": "🟠 Moderada/Baja", "excluded_from_model": false, "lat": 0.94422, "lon": -77.95958}, {"cod_municipio": "27073", "municipio": "BAGADO", "departamento": "CHOCO", "icv_promedio": 5.88, "cluster_id": 0, "cluster_name": "🟠 Moderada/Baja", "excluded_from_model": false, "lat": 5.50312, "lon": -76.19797}, {"cod_municipio": "52720", "municipio": "SAPUYES", "departamento": "NARIÑO", "icv_promedio": 5.84, "cluster_id": 0, "cluster_name": "🟠 Moderada/Baja", "excluded_from_model": false, "lat": 1.03619, "lon": -77.68045}, {"cod_municipio": "52256", "municipio": "EL ROSARIO", "departamento": "NARIÑO", "icv_promedio": 5.25, "cluster_id": 0, "cluster_name": "🟠 Moderada/Baja", "excluded_from_model": false, "lat": 1.84509, "lon": -77.43826}, {"cod_municipio": "52565", "municipio": "PROVIDENCIA", "departamento": "NARIÑO", "icv_promedio": 5.13, "cluster_id": 0, "cluster_name": "🟠 Moderada/Baja", "excluded_from_model": false, "lat": 1.23286, "lon": -77.59844}, {"cod_municipio": "52685", "municipio": "SAN BERNARDO", "departamento": "NARIÑO", "icv_promedio": 5.07, "cluster_id": 0, "cluster_name": "🟠 Moderada/Baja", "excluded_from_model": false, "lat": 1.5149709538821554, "lon": -77.0466580540551}, {"cod_municipio": "27099", "municipio": "BOJAYA", "departamento": "CHOCO", "icv_promedio": 4.82, "cluster_id": 0, "cluster_name": "🟠 Moderada/Baja", "excluded_from_model": false, "lat": 6.47467, "lon": -77.09933}, {"cod_municipio": "19809", "municipio": "TIMBIQUI", "departamento": "CAUCA", "icv_promedio": 4.68, "cluster_id": 0, "cluster_name": "🟠 Moderada/Baja", "excluded_from_model": false, "lat": 2.7746573105909964, "lon": -77.66807803237757}, {"cod_municipio": "27135", "municipio": "EL CANTON DEL SAN PABLO", "departamento": "CHOCO", "icv_promedio": 4.58, "cluster_id": 0, "cluster_name": "🟠 Moderada/Baja", "excluded_from_model": false, "lat": 5.35966, "lon": -76.77256}, {"cod_municipio": "52506", "municipio": "OSPINA", "departamento": "NARIÑO", "icv_promedio": 4.32, "cluster_id": 0, "cluster_name": "🟠 Moderada/Baja", "excluded_from_model": false, "lat": 1.02982, "lon": -77.55235}, {"cod_municipio": "27160", "municipio": "CERTEGUI", "departamento": "CHOCO", "icv_promedio": 4.31, "cluster_id": 0, "cluster_name": "🟠 Moderada/Baja", "excluded_from_model": false, "lat": 5.38983, "lon": -76.52264}, {"cod_municipio": "27372", "municipio": "JURADO", "departamento": "CHOCO", "icv_promedio": 4.28, "cluster_id": 0, "cluster_name": "🟠 Moderada/Baja", "excluded_from_model": false, "lat": 7.10334, "lon": -77.67974}, {"cod_municipio": "27450", "municipio": "MEDIO SAN JUAN", "departamento": "CHOCO", "icv_promedio": 4.22, "cluster_id": 0, "cluster_name": "🟠 Moderada/Baja", "excluded_from_model": false, "lat": 4.81525, "lon": -76.80409}, {"cod_municipio": "27430", "municipio": "MEDIO BAUDO", "departamento": "CHOCO", "icv_promedio": 3.69, "cluster_id": 0, "cluster_name": "🟠 Moderada/Baja", "excluded_from_model": false, "lat": 5.11039, "lon": -76.99593}, {"cod_municipio": "52427", "municipio": "MAGUI", "departamento": "NARIÑO", "icv_promedio": 3.66, "cluster_id": 0, "cluster_name": "🟠 Moderada/Baja", "excluded_from_model": false, "lat": 1.90686, "lon": -78.04474}, {"cod_municipio": "52696", "municipio": "SANTA BARBARA", "departamento": "NARIÑO", "icv_promedio": 3.59, "cluster_id": 0, "cluster_name": "🟠 Moderada/Baja", "excluded_from_model": false, "lat": 2.4502679094187356, "lon": -77.98074255631626}, {"cod_municipio": "52490", "municipio": "OLAYA HERRERA", "departamento": "NARIÑO", "icv_promedio": 3.36, "cluster_id": 0, "cluster_name": "🟠 Moderada/Baja", "excluded_from_model": false, "lat": 2.28989, "lon": -78.29472}, {"cod_municipio": "27425", "municipio": "MEDIO ATRATO", "departamento": "CHOCO", "icv_promedio": 3.13, "cluster_id": 0, "cluster_name": "🟠 Moderada/Baja", "excluded_from_model": false, "lat": 6.03388, "lon": -76.67347}, {"cod_municipio": "27600", "municipio": "RIO QUITO", "departamento": "CHOCO", "icv_promedio": 3.08, "cluster_id": 0, "cluster_name": "🟠 Moderada/Baja", "excluded_from_model": false, "lat": 5.56753, "lon": -76.81157}, {"cod_municipio": "19418", "municipio": "LOPEZ DE MICAY", "departamento": "CAUCA", "icv_promedio": 3.02, "cluster_id": 0, "cluster_name": "🟠 Moderada/Baja", "excluded_from_model": false, "lat": 3.00154, "lon": -77.21841}, {"cod_municipio": "52621", "municipio": "ROBERTO PAYAN", "departamento": "NARIÑO", "icv_promedio": 2.97, "cluster_id": 0, "cluster_name": "🟠 Moderada/Baja", "excluded_from_model": false, "lat": 1.89758, "lon": -78.38112}, {"cod_municipio": "52390", "municipio": "LA TOLA", "departamento": "NARIÑO", "icv_promedio": 2.84, "cluster_id": 0, "cluster_name": "🟠 Moderada/Baja", "excluded_from_model": false, "lat": 2.41931, "lon": -78.20991}, {"cod_municipio": "52473", "municipio": "MOSQUERA", "departamento": "NARIÑO", "icv_promedio": 2.83, "cluster_id": 0, "cluster_name": "🟠 Moderada/Baja", "excluded_from_model": false, "lat": 2.509428342507801, "lon": -78.45089284834073}, {"cod_municipio": "52520", "municipio": "FRANCISCO PIZARRO", "departamento": "NARIÑO", "icv_promedio": 2.58, "cluster_id": 0, "cluster_name": "🟠 Moderada/Baja", "excluded_from_model": false, "lat": 2.08853, "lon": -78.59193}, {"cod_municipio": "27077", "municipio": "BAJO BAUDO", "departamento": "CHOCO", "icv_promedio": 2.16, "cluster_id": 0, "cluster_name": "🟠 Moderada/Baja", "excluded_from_model": false, "lat": 5.01184, "lon": -77.21767}, {"cod_municipio": "27250", "municipio": "EL LITORAL DEL SAN JUAN", "departamento": "CHOCO", "icv_promedio": 2.02, "cluster_id": 0, "cluster_name": "🟠 Moderada/Baja", "excluded_from_model": false, "lat": 4.24716, "lon": -76.9626}, {"cod_municipio": "27025", "municipio": "ALTO BAUDO", "departamento": "CHOCO", "icv_promedio": 1.63, "cluster_id": 0, "cluster_name": "🟠 Moderada/Baja", "excluded_from_model": false, "lat": 5.63674, "lon": -77.08422}, {"cod_municipio": "27150", "municipio": "CARMEN DEL DARIEN", "departamento": "CHOCO", "icv_promedio": 0.24, "cluster_id": null, "cluster_name": null, "excluded_from_model": true, "lat": 7.03365, "lon": -76.97423}, {"cod_municipio": "27493", "municipio": "NUEVO BELEN DE BAJIRA", "departamento": "CHOCO", "icv_promedio": 0.0, "cluster_id": null, "cluster_name": null, "excluded_from_model": true, "lat": 7.082, "lon": -76.967}]}, "top10_ranking": {"echarts_series": {"type": "bar", "categories": ["PUERTO TEJADA", "RIOFRIO", "ROLDANILLO", "PIENDAMO  TUNIA", "CALI", "CANDELARIA", "RESTREPO", "YUMBO", "POPAYAN", "PASTO"], "values": [27.91, 28.7, 28.8, 29.75, 30.27, 31.63, 31.8, 34.64, 45.85, 52.18], "highlight_flags": [false, false, false, false, false, false, false, false, true, true]}, "highlighted_municipalities": ["PASTO", "POPAYAN"], "items": [{"rank": 1, "cod_municipio": "52001", "municipio": "PASTO", "departamento": "NARIÑO", "icv_promedio": 52.18, "cluster_id": 1, "cluster_name": "🔴 Alta severidad", "highlight": true}, {"rank": 2, "cod_municipio": "19001", "municipio": "POPAYAN", "departamento": "CAUCA", "icv_promedio": 45.85, "cluster_id": 1, "cluster_name": "🔴 Alta severidad", "highlight": true}, {"rank": 3, "cod_municipio": "76892", "municipio": "YUMBO", "departamento": "VALLE DEL CAUCA", "icv_promedio": 34.64, "cluster_id": 1, "cluster_name": "🔴 Alta severidad", "highlight": false}, {"rank": 4, "cod_municipio": "76606", "municipio": "RESTREPO", "departamento": "VALLE DEL CAUCA", "icv_promedio": 31.8, "cluster_id": 1, "cluster_name": "🔴 Alta severidad", "highlight": false}, {"rank": 5, "cod_municipio": "76130", "municipio": "CANDELARIA", "departamento": "VALLE DEL CAUCA", "icv_promedio": 31.63, "cluster_id": 1, "cluster_name": "🔴 Alta severidad", "highlight": false}, {"rank": 6, "cod_municipio": "76001", "municipio": "CALI", "departamento": "VALLE DEL CAUCA", "icv_promedio": 30.27, "cluster_id": 1, "cluster_name": "🔴 Alta severidad", "highlight": false}, {"rank": 7, "cod_municipio": "19548", "municipio": "PIENDAMO  TUNIA", "departamento": "CAUCA", "icv_promedio": 29.75, "cluster_id": 1, "cluster_name": "🔴 Alta severidad", "highlight": false}, {"rank": 8, "cod_municipio": "76622", "municipio": "ROLDANILLO", "departamento": "VALLE DEL CAUCA", "icv_promedio": 28.8, "cluster_id": 1, "cluster_name": "🔴 Alta severidad", "highlight": false}, {"rank": 9, "cod_municipio": "76616", "municipio": "RIOFRIO", "departamento": "VALLE DEL CAUCA", "icv_promedio": 28.7, "cluster_id": 1, "cluster_name": "🔴 Alta severidad", "highlight": false}, {"rank": 10, "cod_municipio": "19573", "municipio": "PUERTO TEJADA", "departamento": "CAUCA", "icv_promedio": 27.91, "cluster_id": 1, "cluster_name": "🔴 Alta severidad", "highlight": false}]}, "timeline": {"echarts_type": "line", "x_axis": [2018, 2019, 2020, 2021, 2022, 2023, 2024, 2025], "series": [{"name": "ICV-GEN-F promedio regional", "data": [14.53, 14.71, 13.68, 15.87, 13.0, 13.35, 14.62, 13.68]}]}}